{
"type": "FeatureCollection",
"name": "LINCO_14_toilets",
"crs": { "type": "name", "properties": { "name": "urn:ogc:def:crs:OGC:1.3:CRS84" } },
"features": [
{ "type": "Feature", "properties": { "name": "Disabled", "payment_info": "Free", "accessible": "False", "radar": "True", "women": "Unknown", "men": "Unknown", "baby_change": "Unknown", "Mon": "Unknown", "Tue": "Unknown", "Wed": "Unknown", "Thu": "Unknown", "Fri": "Unknown", "Sat": "Unknown", "Sun": "Unknown", "index_right": 11, "park_offical_id": "LINCO_14" }, "geometry": { "type": "Point", "coordinates": [ -0.537029083, 53.227472532 ] } },
{ "type": "Feature", "properties": { "name": "Castle Square", "payment_info": "020", "accessible": "True", "radar": "True", "women": "True", "men": "True", "baby_change": "True", "Mon": "09:00-17:00", "Tue": "09:00-17:00", "Wed": "09:00-17:00", "Thu": "09:00-17:00", "Fri": "09:00-17:00", "Sat": "09:00-17:00", "Sun": "09:00-17:00", "index_right": 11, "park_offical_id": "LINCO_14" }, "geometry": { "type": "Point", "coordinates": [ -0.539464653, 53.234294069 ] } },
{ "type": "Feature", "properties": { "name": "Waterside Centre Toilets", "payment_info": "Cost unknown", "accessible": "False", "radar": "Unknown", "women": "True", "men": "True", "baby_change": "Unknown", "Mon": "09:00-17:00", "Tue": "09:00-17:00", "Wed": "09:00-17:00", "Thu": "09:00-17:00", "Fri": "09:00-17:00", "Sat": "09:00-17:00", "Sun": "09:00-17:00", "index_right": 11, "park_offical_id": "LINCO_14" }, "geometry": { "type": "Point", "coordinates": [ -0.538754666, 53.228590271 ] } },
{ "type": "Feature", "properties": { "name": "Lucy Tower Street", "payment_info": "020", "accessible": "False", "radar": "False", "women": "False", "men": "False", "baby_change": "False", "Mon": "09:00-17:00", "Tue": "09:00-17:00", "Wed": "09:00-17:00", "Thu": "09:00-17:00", "Fri": "09:00-17:00", "Sat": "09:00-17:00", "Sun": "09:00-17:00", "index_right": 11, "park_offical_id": "LINCO_14" }, "geometry": { "type": "Point", "coordinates": [ -0.544543861, 53.229104906 ] } },
{ "type": "Feature", "properties": { "name": "The Lawn Visitors Centre", "payment_info": "Free", "accessible": "False", "radar": "Unknown", "women": "True", "men": "True", "baby_change": "True", "Mon": "Unknown", "Tue": "Unknown", "Wed": "Unknown", "Thu": "Unknown", "Fri": "Unknown", "Sat": "Unknown", "Sun": "Unknown", "index_right": 11, "park_offical_id": "LINCO_14" }, "geometry": { "type": "Point", "coordinates": [ -0.544293251, 53.235122859 ] } },
{ "type": "Feature", "properties": { "name": "Lincoln Central Library", "payment_info": "Free", "accessible": "Unknown", "radar": "Unknown", "women": "True", "men": "True", "baby_change": "Unknown", "Mon": "Unknown", "Tue": "Unknown", "Wed": "Unknown", "Thu": "Unknown", "Fri": "Unknown", "Sat": "Unknown", "Sun": "Unknown", "index_right": 11, "park_offical_id": "LINCO_14" }, "geometry": { "type": "Point", "coordinates": [ -0.537335146, 53.229550043 ] } },
{ "type": "Feature", "properties": { "name": "Lincoln bus station", "payment_info": "Cost unknown", "accessible": "True", "radar": "Unknown", "women": "True", "men": "True", "baby_change": "True", "Mon": "09:00-17:00", "Tue": "09:00-17:00", "Wed": "09:00-17:00", "Thu": "09:00-17:00", "Fri": "09:00-17:00", "Sat": "09:00-17:00", "Sun": "09:00-17:00", "index_right": 11, "park_offical_id": "LINCO_14" }, "geometry": { "type": "Point", "coordinates": [ -0.538432002, 53.226621075 ] } },
{ "type": "Feature", "properties": { "name": "Lincoln Central Station", "payment_info": "Free", "accessible": "True", "radar": "Unknown", "women": "True", "men": "True", "baby_change": "True", "Mon": "08:00-18:30", "Tue": "08:00-18:30", "Wed": "08:00-18:30", "Thu": "08:00-18:30", "Fri": "08:00-18:30", "Sat": "08:00-18:30", "Sun": "08:00-18:30", "index_right": 11, "park_offical_id": "LINCO_14" }, "geometry": { "type": "Point", "coordinates": [ -0.5399271, 53.2259721 ] } },
{ "type": "Feature", "properties": { "name": "Lincoln Cathedral Visitor Centre", "payment_info": "Free", "accessible": "Unknown", "radar": "Unknown", "women": "True", "men": "True", "baby_change": "Unknown", "Mon": "Unknown", "Tue": "Unknown", "Wed": "Unknown", "Thu": "Unknown", "Fri": "Unknown", "Sat": "Unknown", "Sun": "Unknown", "index_right": 11, "park_offical_id": "LINCO_14" }, "geometry": { "type": "Point", "coordinates": [ -0.535977914, 53.234990156 ] } },
{ "type": "Feature", "properties": { "name": "Tentercroft Street", "payment_info": "20p   ", "accessible": "False", "radar": "Unknown", "women": "True", "men": "True", "baby_change": "True", "Mon": "09:00-17:00", "Tue": "09:00-17:00", "Wed": "09:00-17:00", "Thu": "09:00-17:00", "Fri": "09:00-17:00", "Sat": "09:00-17:00", "Sun": "09:00-17:00", "index_right": 11, "park_offical_id": "LINCO_14" }, "geometry": { "type": "Point", "coordinates": [ -0.5409894, 53.22595988 ] } }
]
}
