{
"type": "FeatureCollection",
"name": "NORNO_2_toilets",
"crs": { "type": "name", "properties": { "name": "urn:ogc:def:crs:OGC:1.3:CRS84" } },
"features": [
{ "type": "Feature", "properties": { "name": "Sainsburys 13 Rockingham Road", "payment_info": "Free", "accessible": "True", "radar": "False", "women": "True", "men": "True", "baby_change": "True", "Mon": "08:00-21:00", "Tue": "08:00-21:00", "Wed": "08:00-21:00", "Thu": "08:00-21:00", "Fri": "08:00-21:00", "Sat": "08:00-21:00", "Sun": "10:00-16:00", "index_right": 83, "park_offical_id": "NORNO_2" }, "geometry": { "type": "Point", "coordinates": [ -0.727092571, 52.402821029 ] } },
{ "type": "Feature", "properties": { "name": "Earl of Dalkeith 1315 Dalkeith Place", "payment_info": "Free", "accessible": "False", "radar": "True", "women": "True", "men": "True", "baby_change": "Unknown", "Mon": "Unknown", "Tue": "Unknown", "Wed": "Unknown", "Thu": "Unknown", "Fri": "Unknown", "Sat": "Unknown", "Sun": "Unknown", "index_right": 83, "park_offical_id": "NORNO_2" }, "geometry": { "type": "Point", "coordinates": [ -0.726132908, 52.399394248 ] } },
{ "type": "Feature", "properties": { "name": "Newlands Shopping Centre", "payment_info": "20p", "accessible": "True", "radar": "True", "women": "True", "men": "True", "baby_change": "True", "Mon": "09:00-17:00", "Tue": "09:00-17:00", "Wed": "09:00-17:00", "Thu": "09:00-17:00", "Fri": "09:00-17:00", "Sat": "09:00-17:00", "Sun": "09:00-17:00", "index_right": 83, "park_offical_id": "NORNO_2" }, "geometry": { "type": "Point", "coordinates": [ -0.728036917, 52.401448359 ] } },
{ "type": "Feature", "properties": { "name": "Aura Bar  Lounge", "payment_info": "Free", "accessible": "False", "radar": "Unknown", "women": "Unknown", "men": "Unknown", "baby_change": "Unknown", "Mon": "Unknown", "Tue": "Unknown", "Wed": "Unknown", "Thu": "Unknown", "Fri": "Unknown", "Sat": "Unknown", "Sun": "Unknown", "index_right": 83, "park_offical_id": "NORNO_2" }, "geometry": { "type": "Point", "coordinates": [ -0.726918869, 52.398350479 ] } },
{ "type": "Feature", "properties": { "name": "McDonalds 39 High Street Northampton", "payment_info": "Free", "accessible": "False", "radar": "Unknown", "women": "True", "men": "True", "baby_change": "Unknown", "Mon": "Unknown", "Tue": "Unknown", "Wed": "Unknown", "Thu": "Unknown", "Fri": "Unknown", "Sat": "Unknown", "Sun": "Unknown", "index_right": 83, "park_offical_id": "NORNO_2" }, "geometry": { "type": "Point", "coordinates": [ -0.728470261, 52.398870982 ] } },
{ "type": "Feature", "properties": { "name": "Newlands Shopping Centre Gold Street", "payment_info": "Free", "accessible": "False", "radar": "True", "women": "True", "men": "True", "baby_change": "Unknown", "Mon": "Unknown", "Tue": "Unknown", "Wed": "Unknown", "Thu": "Unknown", "Fri": "Unknown", "Sat": "Unknown", "Sun": "Unknown", "index_right": 83, "park_offical_id": "NORNO_2" }, "geometry": { "type": "Point", "coordinates": [ -0.727937564, 52.400528521 ] } }
]
}
