{
"type": "FeatureCollection",
"name": "BROXT_21_toilets",
"crs": { "type": "name", "properties": { "name": "urn:ogc:def:crs:OGC:1.3:CRS84" } },
"features": [
{ "type": "Feature", "properties": { "name": "Tesco", "payment_info": "Cost unknown", "accessible": "True", "radar": "Unknown", "women": "True", "men": "True", "baby_change": "True", "Mon": "09:00-17:00", "Tue": "09:00-17:00", "Wed": "09:00-17:00", "Thu": "09:00-17:00", "Fri": "09:00-17:00", "Sat": "09:00-17:00", "Sun": "09:00-17:00", "index_right": 14, "park_offical_id": "BROXT_21" }, "geometry": { "type": "Point", "coordinates": [ -1.21334408, 52.926396069 ] } },
{ "type": "Feature", "properties": { "name": "Town Hall", "payment_info": "Free", "accessible": "False", "radar": "False", "women": "True", "men": "True", "baby_change": "False", "Mon": "09:00-17:00", "Tue": "09:00-17:00", "Wed": "09:00-17:00", "Thu": "09:00-17:00", "Fri": "09:00-17:00", "Sat": "Closed", "Sun": "Closed", "index_right": 14, "park_offical_id": "BROXT_21" }, "geometry": { "type": "Point", "coordinates": [ -1.218516827, 52.927101587 ] } },
{ "type": "Feature", "properties": { "name": "Beeston Library", "payment_info": "Cost unknown", "accessible": "True", "radar": "False", "women": "True", "men": "True", "baby_change": "True", "Mon": "09:00-17:00", "Tue": "09:00-17:00", "Wed": "09:00-17:00", "Thu": "09:00-17:00", "Fri": "09:00-17:00", "Sat": "Closed", "Sun": "Closed", "index_right": 14, "park_offical_id": "BROXT_21" }, "geometry": { "type": "Point", "coordinates": [ -1.217885613, 52.9274821 ] } },
{ "type": "Feature", "properties": { "name": "Sainsburys", "payment_info": "Cost unknown", "accessible": "True", "radar": "Unknown", "women": "True", "men": "True", "baby_change": "True", "Mon": "09:00-17:00", "Tue": "09:00-17:00", "Wed": "09:00-17:00", "Thu": "09:00-17:00", "Fri": "09:00-17:00", "Sat": "09:00-17:00", "Sun": "09:00-17:00", "index_right": 14, "park_offical_id": "BROXT_21" }, "geometry": { "type": "Point", "coordinates": [ -1.215141324, 52.928837501 ] } },
{ "type": "Feature", "properties": { "name": "Unknown", "payment_info": "Free", "accessible": "False", "radar": "Unknown", "women": "Unknown", "men": "Unknown", "baby_change": "Unknown", "Mon": "Unknown", "Tue": "Unknown", "Wed": "Unknown", "Thu": "Unknown", "Fri": "Unknown", "Sat": "Unknown", "Sun": "Unknown", "index_right": 14, "park_offical_id": "BROXT_21" }, "geometry": { "type": "Point", "coordinates": [ -1.2075741, 52.9208824 ] } },
{ "type": "Feature", "properties": { "name": "Tram Stop Toilet", "payment_info": "Free", "accessible": "Unknown", "radar": "Unknown", "women": "Unknown", "men": "Unknown", "baby_change": "Unknown", "Mon": "Unknown", "Tue": "Unknown", "Wed": "Unknown", "Thu": "Unknown", "Fri": "Unknown", "Sat": "Unknown", "Sun": "Unknown", "index_right": 14, "park_offical_id": "BROXT_21" }, "geometry": { "type": "Point", "coordinates": [ -1.215778232, 52.926021576 ] } }
]
}
