{
"type": "FeatureCollection",
"name": "LEICE_17_toilets",
"crs": { "type": "name", "properties": { "name": "urn:ogc:def:crs:OGC:1.3:CRS84" } },
"features": [
{ "type": "Feature", "properties": { "name": "Belgrave Cemetary", "payment_info": "Cost unknown", "accessible": "False", "radar": "Unknown", "women": "True", "men": "True", "baby_change": "False", "Mon": "Unknown", "Tue": "Unknown", "Wed": "Unknown", "Thu": "Unknown", "Fri": "Unknown", "Sat": "Unknown", "Sun": "Unknown", "index_right": 56, "park_offical_id": "LEICE_17" }, "geometry": { "type": "Point", "coordinates": [ -1.131029162, 52.665432018 ] } },
{ "type": "Feature", "properties": { "name": "Belgrave Hall  Gardens", "payment_info": "Cost unknown", "accessible": "False", "radar": "Unknown", "women": "True", "men": "True", "baby_change": "True", "Mon": "Unknown", "Tue": "Unknown", "Wed": "Unknown", "Thu": "Unknown", "Fri": "Unknown", "Sat": "Unknown", "Sun": "Unknown", "index_right": 56, "park_offical_id": "LEICE_17" }, "geometry": { "type": "Point", "coordinates": [ -1.12504192, 52.659436622 ] } },
{ "type": "Feature", "properties": { "name": "Abbey Pumping Station", "payment_info": "Free", "accessible": "False", "radar": "Unknown", "women": "True", "men": "True", "baby_change": "True", "Mon": "11:00-16:30", "Tue": "11:00-16:30", "Wed": "11:00-16:30", "Thu": "11:00-16:30", "Fri": "11:00-16:30", "Sat": "11:00-16:30", "Sun": "11:00-16:30", "index_right": 56, "park_offical_id": "LEICE_17" }, "geometry": { "type": "Point", "coordinates": [ -1.131162643, 52.655429114 ] } },
{ "type": "Feature", "properties": { "name": "Cossington Street", "payment_info": "Cost unknown", "accessible": "False", "radar": "Unknown", "women": "True", "men": "True", "baby_change": "False", "Mon": "07:00-20:00", "Tue": "07:00-20:00", "Wed": "07:00-20:00", "Thu": "07:00-20:00", "Fri": "07:00-20:00", "Sat": "07:00-20:00", "Sun": "07:00-20:00", "index_right": 56, "park_offical_id": "LEICE_17" }, "geometry": { "type": "Point", "coordinates": [ -1.120747429, 52.650936291 ] } },
{ "type": "Feature", "properties": { "name": "Belgrave Road", "payment_info": "Cost unknown", "accessible": "False", "radar": "Unknown", "women": "True", "men": "True", "baby_change": "False", "Mon": "07:00-20:00", "Tue": "07:00-20:00", "Wed": "07:00-20:00", "Thu": "07:00-20:00", "Fri": "07:00-20:00", "Sat": "07:00-20:00", "Sun": "07:00-20:00", "index_right": 56, "park_offical_id": "LEICE_17" }, "geometry": { "type": "Point", "coordinates": [ -1.123720653, 52.647874751 ] } },
{ "type": "Feature", "properties": { "name": "Abbey Park", "payment_info": "Cost unknown", "accessible": "False", "radar": "Unknown", "women": "True", "men": "True", "baby_change": "True", "Mon": "Unknown", "Tue": "Unknown", "Wed": "Unknown", "Thu": "Unknown", "Fri": "Unknown", "Sat": "Unknown", "Sun": "Unknown", "index_right": 56, "park_offical_id": "LEICE_17" }, "geometry": { "type": "Point", "coordinates": [ -1.130654198, 52.647062779 ] } }
]
}
