{
"type": "FeatureCollection",
"name": "LEICE_27_toilets",
"crs": { "type": "name", "properties": { "name": "urn:ogc:def:crs:OGC:1.3:CRS84" } },
"features": [
{ "type": "Feature", "properties": { "name": "Unknown", "payment_info": "Free", "accessible": "False", "radar": "Unknown", "women": "Unknown", "men": "Unknown", "baby_change": "Unknown", "Mon": "Unknown", "Tue": "Unknown", "Wed": "Unknown", "Thu": "Unknown", "Fri": "Unknown", "Sat": "Unknown", "Sun": "Unknown", "index_right": 85, "park_offical_id": "LEICE_27" }, "geometry": { "type": "Point", "coordinates": [ -1.1232603, 52.6321957 ] } },
{ "type": "Feature", "properties": { "name": "New Walk Museum", "payment_info": "Free", "accessible": "False", "radar": "Unknown", "women": "True", "men": "True", "baby_change": "True", "Mon": "10:00-17:00", "Tue": "10:00-17:00", "Wed": "10:00-17:00", "Thu": "10:00-17:00", "Fri": "10:00-17:00", "Sat": "10:00-17:00", "Sun": "Closed", "index_right": 85, "park_offical_id": "LEICE_27" }, "geometry": { "type": "Point", "coordinates": [ -1.12783134, 52.628854621 ] } },
{ "type": "Feature", "properties": { "name": "Unknown", "payment_info": "Free", "accessible": "False", "radar": "Unknown", "women": "Unknown", "men": "Unknown", "baby_change": "Unknown", "Mon": "Unknown", "Tue": "Unknown", "Wed": "Unknown", "Thu": "Unknown", "Fri": "Unknown", "Sat": "Unknown", "Sun": "Unknown", "index_right": 85, "park_offical_id": "LEICE_27" }, "geometry": { "type": "Point", "coordinates": [ -1.1236599, 52.632275 ] } },
{ "type": "Feature", "properties": { "name": "Unknown", "payment_info": "Free", "accessible": "False", "radar": "Unknown", "women": "Unknown", "men": "Unknown", "baby_change": "Unknown", "Mon": "Unknown", "Tue": "Unknown", "Wed": "Unknown", "Thu": "Unknown", "Fri": "Unknown", "Sat": "Unknown", "Sun": "Unknown", "index_right": 85, "park_offical_id": "LEICE_27" }, "geometry": { "type": "Point", "coordinates": [ -1.1250186, 52.6218104 ] } },
{ "type": "Feature", "properties": { "name": "Victoria Park", "payment_info": "Free", "accessible": "False", "radar": "True", "women": "True", "men": "True", "baby_change": "False", "Mon": "Unknown", "Tue": "Unknown", "Wed": "Unknown", "Thu": "Unknown", "Fri": "Unknown", "Sat": "Unknown", "Sun": "Unknown", "index_right": 85, "park_offical_id": "LEICE_27" }, "geometry": { "type": "Point", "coordinates": [ -1.119259, 52.625083928 ] } },
{ "type": "Feature", "properties": { "name": "Infirmary Square", "payment_info": "Cost unknown", "accessible": "False", "radar": "Unknown", "women": "True", "men": "True", "baby_change": "False", "Mon": "07:00-20:00", "Tue": "07:00-20:00", "Wed": "07:00-20:00", "Thu": "07:00-20:00", "Fri": "07:00-20:00", "Sat": "07:00-20:00", "Sun": "07:00-20:00", "index_right": 85, "park_offical_id": "LEICE_27" }, "geometry": { "type": "Point", "coordinates": [ -1.134062934, 52.628631296 ] } },
{ "type": "Feature", "properties": { "name": "Leicester", "payment_info": "Free", "accessible": "False", "radar": "False", "women": "Unknown", "men": "Unknown", "baby_change": "True", "Mon": "Unknown", "Tue": "Unknown", "Wed": "Unknown", "Thu": "Unknown", "Fri": "Unknown", "Sat": "Unknown", "Sun": "Unknown", "index_right": 85, "park_offical_id": "LEICE_27" }, "geometry": { "type": "Point", "coordinates": [ -1.124762893, 52.631628706 ] } },
{ "type": "Feature", "properties": { "name": "Customer Services", "payment_info": "Cost unknown", "accessible": "False", "radar": "Unknown", "women": "True", "men": "True", "baby_change": "True", "Mon": "Unknown", "Tue": "Unknown", "Wed": "Unknown", "Thu": "Unknown", "Fri": "Unknown", "Sat": "Unknown", "Sun": "Unknown", "index_right": 85, "park_offical_id": "LEICE_27" }, "geometry": { "type": "Point", "coordinates": [ -1.129617935, 52.632994836 ] } }
]
}
