{
"type": "FeatureCollection",
"name": "BOSTO_85_toilets",
"crs": { "type": "name", "properties": { "name": "urn:ogc:def:crs:OGC:1.3:CRS84" } },
"features": [
{ "type": "Feature", "properties": { "name": "Max toilet ", "payment_info": "150", "accessible": "False", "radar": "False", "women": "False", "men": "False", "baby_change": "False", "Mon": "00:00-12:00", "Tue": "Closed", "Wed": "Closed", "Thu": "Closed", "Fri": "Closed", "Sat": "Closed", "Sun": "Closed", "index_right": 31, "park_offical_id": "BOSTO_85" }, "geometry": { "type": "Point", "coordinates": [ -0.0222854, 52.9804343 ] } },
{ "type": "Feature", "properties": { "name": "Jessica Toilet ", "payment_info": "20p", "accessible": "False", "radar": "True", "women": "True", "men": "True", "baby_change": "True", "Mon": "08:00-18:00", "Tue": "08:00-18:00", "Wed": "08:00-18:00", "Thu": "08:00-18:00", "Fri": "08:00-18:00", "Sat": "08:00-18:00", "Sun": "08:00-18:00", "index_right": 31, "park_offical_id": "BOSTO_85" }, "geometry": { "type": "Point", "coordinates": [ -0.019633274, 52.9806574 ] } },
{ "type": "Feature", "properties": { "name": "Parkgate", "payment_info": "020", "accessible": "False", "radar": "True", "women": "True", "men": "True", "baby_change": "True", "Mon": "08:00-20:00", "Tue": "08:00-20:00", "Wed": "08:00-20:00", "Thu": "08:00-20:00", "Fri": "08:00-20:00", "Sat": "08:00-20:00", "Sun": "Closed", "index_right": 31, "park_offical_id": "BOSTO_85" }, "geometry": { "type": "Point", "coordinates": [ -0.022261675, 52.980002322 ] } },
{ "type": "Feature", "properties": { "name": "Cattle Market Wide Bargate", "payment_info": "020", "accessible": "False", "radar": "True", "women": "True", "men": "True", "baby_change": "True", "Mon": "08:00-18:00", "Tue": "08:00-18:00", "Wed": "08:00-18:00", "Thu": "08:00-18:00", "Fri": "08:00-18:00", "Sat": "08:00-18:00", "Sun": "08:00-18:00", "index_right": 31, "park_offical_id": "BOSTO_85" }, "geometry": { "type": "Point", "coordinates": [ -0.019195537, 52.980274925 ] } },
{ "type": "Feature", "properties": { "name": "St Botolphs Church", "payment_info": "Free", "accessible": "False", "radar": "Unknown", "women": "True", "men": "True", "baby_change": "Unknown", "Mon": "Unknown", "Tue": "Unknown", "Wed": "Unknown", "Thu": "Unknown", "Fri": "Unknown", "Sat": "Unknown", "Sun": "Unknown", "index_right": 31, "park_offical_id": "BOSTO_85" }, "geometry": { "type": "Point", "coordinates": [ -0.025116205, 52.978532109 ] } },
{ "type": "Feature", "properties": { "name": "Mateusz Toilet The Sequel ", "payment_info": "Free", "accessible": "True", "radar": "True", "women": "True", "men": "True", "baby_change": "True", "Mon": "Unknown", "Tue": "Unknown", "Wed": "Unknown", "Thu": "Unknown", "Fri": "Unknown", "Sat": "Unknown", "Sun": "Unknown", "index_right": 31, "park_offical_id": "BOSTO_85" }, "geometry": { "type": "Point", "coordinates": [ -0.023508668, 52.979009069 ] } },
{ "type": "Feature", "properties": { "name": "Jacks Toilet ", "payment_info": "1000", "accessible": "False", "radar": "True", "women": "False", "men": "True", "baby_change": "False", "Mon": "Closed", "Tue": "Closed", "Wed": "Closed", "Thu": "Closed", "Fri": "Closed", "Sat": "09:47-10:50", "Sun": "Closed", "index_right": 31, "park_offical_id": "BOSTO_85" }, "geometry": { "type": "Point", "coordinates": [ -0.02330482, 52.977164724 ] } },
{ "type": "Feature", "properties": { "name": "Waterfall Plaza", "payment_info": "Cost unknown", "accessible": "True", "radar": "False", "women": "True", "men": "True", "baby_change": "True", "Mon": "09:00-17:00", "Tue": "09:00-17:00", "Wed": "09:00-17:00", "Thu": "09:00-17:00", "Fri": "09:00-17:00", "Sat": "09:00-17:00", "Sun": "09:00-17:00", "index_right": 31, "park_offical_id": "BOSTO_85" }, "geometry": { "type": "Point", "coordinates": [ -0.024365187, 52.97932668 ] } },
{ "type": "Feature", "properties": { "name": "Cattle Market", "payment_info": "Free", "accessible": "True", "radar": "True", "women": "True", "men": "True", "baby_change": "True", "Mon": "08:00-18:00", "Tue": "08:00-18:00", "Wed": "08:00-18:00", "Thu": "08:00-18:00", "Fri": "08:00-18:00", "Sat": "08:00-18:00", "Sun": "08:00-18:00", "index_right": 31, "park_offical_id": "BOSTO_85" }, "geometry": { "type": "Point", "coordinates": [ -0.019462109, 52.980867331 ] } }
]
}
