{
"type": "FeatureCollection",
"name": "NORNO_80",
"crs": { "type": "name", "properties": { "name": "urn:ogc:def:crs:OGC:1.3:CRS84" } },
"features": [
{ "type": "Feature", "properties": { "osm_id": 8701167902, "name": "Poppy’s Bench", "amenity": "bench", "man_made": null, "leisure": null, "playground": null, "memorial": null }, "geometry": { "type": "Point", "coordinates": [ -0.7830882, 52.2784614 ] } },
{ "type": "Feature", "properties": { "osm_id": 8701167914, "name": null, "amenity": null, "man_made": null, "leisure": "picnic_table", "playground": null, "memorial": null }, "geometry": { "type": "Point", "coordinates": [ -0.7828303, 52.2785224 ] } },
{ "type": "Feature", "properties": { "osm_id": 8701167904, "name": "Liz’s Bench", "amenity": "bench", "man_made": null, "leisure": null, "playground": null, "memorial": null }, "geometry": { "type": "Point", "coordinates": [ -0.7833711, 52.2785893 ] } },
{ "type": "Feature", "properties": { "osm_id": 8701204219, "name": "Bud’s Bench", "amenity": "bench", "man_made": null, "leisure": null, "playground": null, "memorial": null }, "geometry": { "type": "Point", "coordinates": [ -0.7785496, 52.2788347 ] } },
{ "type": "Feature", "properties": { "osm_id": 8701167915, "name": null, "amenity": null, "man_made": null, "leisure": "picnic_table", "playground": null, "memorial": null }, "geometry": { "type": "Point", "coordinates": [ -0.7833964, 52.278888 ] } },
{ "type": "Feature", "properties": { "osm_id": 8701167910, "name": null, "amenity": null, "man_made": null, "leisure": "picnic_table", "playground": null, "memorial": null }, "geometry": { "type": "Point", "coordinates": [ -0.7835684, 52.2790452 ] } },
{ "type": "Feature", "properties": { "osm_id": 8701529441, "name": null, "amenity": null, "man_made": null, "leisure": "picnic_table", "playground": null, "memorial": null }, "geometry": { "type": "Point", "coordinates": [ -0.7778003, 52.2790475 ] } },
{ "type": "Feature", "properties": { "osm_id": 8701204217, "name": null, "amenity": null, "man_made": null, "leisure": "picnic_table", "playground": null, "memorial": null }, "geometry": { "type": "Point", "coordinates": [ -0.783713, 52.279208 ] } },
{ "type": "Feature", "properties": { "osm_id": 8701529442, "name": "Pgb", "amenity": "bench", "man_made": null, "leisure": null, "playground": null, "memorial": null }, "geometry": { "type": "Point", "coordinates": [ -0.7780871, 52.2794199 ] } },
{ "type": "Feature", "properties": { "osm_id": 8701264058, "name": "Beryl & Tony’s Seat", "amenity": "bench", "man_made": null, "leisure": null, "playground": null, "memorial": null }, "geometry": { "type": "Point", "coordinates": [ -0.7863843, 52.2806325 ] } },
{ "type": "Feature", "properties": { "osm_id": 8701264052, "name": "Roy’s Bench", "amenity": "bench", "man_made": null, "leisure": null, "playground": null, "memorial": null }, "geometry": { "type": "Point", "coordinates": [ -0.7872349, 52.2808363 ] } },
{ "type": "Feature", "properties": { "osm_id": 8701264050, "name": null, "amenity": "bench", "man_made": null, "leisure": null, "playground": null, "memorial": null }, "geometry": { "type": "Point", "coordinates": [ -0.790635, 52.2810166 ] } },
{ "type": "Feature", "properties": { "osm_id": 8701264053, "name": "Brandy", "amenity": "bench", "man_made": null, "leisure": null, "playground": null, "memorial": null }, "geometry": { "type": "Point", "coordinates": [ -0.7893135, 52.2810662 ] } },
{ "type": "Feature", "properties": { "osm_id": 8701264059, "name": null, "amenity": null, "man_made": null, "leisure": "picnic_table", "playground": null, "memorial": null }, "geometry": { "type": "Point", "coordinates": [ -0.7870938, 52.2812079 ] } },
{ "type": "Feature", "properties": { "osm_id": 8701264057, "name": null, "amenity": null, "man_made": null, "leisure": "picnic_table", "playground": null, "memorial": null }, "geometry": { "type": "Point", "coordinates": [ -0.7918514, 52.2815491 ] } },
{ "type": "Feature", "properties": { "osm_id": 1395326754, "name": "Barney And Ben And Millie", "amenity": "bench", "man_made": null, "leisure": null, "playground": null, "memorial": null }, "geometry": { "type": "Point", "coordinates": [ -0.7880056, 52.2833627 ] } },
{ "type": "Feature", "properties": { "osm_id": 8701370775, "name": "Kev’s Bench", "amenity": "bench", "man_made": null, "leisure": null, "playground": null, "memorial": null }, "geometry": { "type": "Point", "coordinates": [ -0.7891144, 52.2839739 ] } },
{ "type": "Feature", "properties": { "osm_id": 8701167905, "name": null, "amenity": null, "man_made": null, "leisure": "picnic_table", "playground": null, "memorial": null }, "geometry": { "type": "Point", "coordinates": [ -0.783959, 52.2794608 ] } },
{ "type": "Feature", "properties": { "osm_id": 8701204218, "name": "Brenda And Barry", "amenity": "bench", "man_made": null, "leisure": null, "playground": null, "memorial": null }, "geometry": { "type": "Point", "coordinates": [ -0.7842629, 52.2796179 ] } },
{ "type": "Feature", "properties": { "osm_id": 8701167906, "name": null, "amenity": "bench", "man_made": null, "leisure": null, "playground": null, "memorial": null }, "geometry": { "type": "Point", "coordinates": [ -0.7852429, 52.2803842 ] } },
{ "type": "Feature", "properties": { "osm_id": 8701167912, "name": null, "amenity": null, "man_made": null, "leisure": "picnic_table", "playground": null, "memorial": null }, "geometry": { "type": "Point", "coordinates": [ -0.7854649, 52.2807632 ] } },
{ "type": "Feature", "properties": { "osm_id": 8701429343, "name": "Andi’s View", "amenity": "bench", "man_made": null, "leisure": null, "playground": null, "memorial": null }, "geometry": { "type": "Point", "coordinates": [ -0.7789636, 52.2807887 ] } },
{ "type": "Feature", "properties": { "osm_id": 8701417070, "name": "Joyce And Ron", "amenity": "bench", "man_made": null, "leisure": null, "playground": null, "memorial": null }, "geometry": { "type": "Point", "coordinates": [ -0.7790055, 52.2821084 ] } },
{ "type": "Feature", "properties": { "osm_id": 8701370776, "name": null, "amenity": "bench", "man_made": null, "leisure": null, "playground": null, "memorial": null }, "geometry": { "type": "Point", "coordinates": [ -0.7825003, 52.2827021 ] } },
{ "type": "Feature", "properties": { "osm_id": 8701370780, "name": "Martin Oz", "amenity": "bench", "man_made": null, "leisure": null, "playground": null, "memorial": null }, "geometry": { "type": "Point", "coordinates": [ -0.7853466, 52.2829584 ] } },
{ "type": "Feature", "properties": { "osm_id": 8701370785, "name": "Harry Basset Honey & Molly", "amenity": "bench", "man_made": null, "leisure": null, "playground": null, "memorial": null }, "geometry": { "type": "Point", "coordinates": [ -0.7818664, 52.2833541 ] } },
{ "type": "Feature", "properties": { "osm_id": 8701417069, "name": "Rms", "amenity": "bench", "man_made": null, "leisure": null, "playground": null, "memorial": null }, "geometry": { "type": "Point", "coordinates": [ -0.7792955, 52.2846639 ] } },
{ "type": "Feature", "properties": { "osm_id": 8701370782, "name": null, "amenity": "bench", "man_made": null, "leisure": null, "playground": null, "memorial": null }, "geometry": { "type": "Point", "coordinates": [ -0.7914628, 52.2842527 ] } },
{ "type": "Feature", "properties": { "osm_id": 8701370783, "name": "Roger’s Walk", "amenity": "bench", "man_made": null, "leisure": null, "playground": null, "memorial": null }, "geometry": { "type": "Point", "coordinates": [ -0.7899641, 52.2848353 ] } },
{ "type": "Feature", "properties": { "osm_id": 8701370774, "name": "Keith", "amenity": "bench", "man_made": null, "leisure": null, "playground": null, "memorial": null }, "geometry": { "type": "Point", "coordinates": [ -0.7913121, 52.2858566 ] } },
{ "type": "Feature", "properties": { "osm_id": 8701400850, "name": "Sandy And John’s View", "amenity": "bench", "man_made": null, "leisure": null, "playground": null, "memorial": null }, "geometry": { "type": "Point", "coordinates": [ -0.7822075, 52.2847925 ] } },
{ "type": "Feature", "properties": { "osm_id": 8701400849, "name": "Gail’s Bench", "amenity": "bench", "man_made": null, "leisure": null, "playground": null, "memorial": null }, "geometry": { "type": "Point", "coordinates": [ -0.78008, 52.2858805 ] } },
{ "type": "Feature", "properties": { "osm_id": 8701400853, "name": "Sue’s Seat", "amenity": "bench", "man_made": null, "leisure": null, "playground": null, "memorial": null }, "geometry": { "type": "Point", "coordinates": [ -0.7825312, 52.2859437 ] } },
{ "type": "Feature", "properties": { "osm_id": 8701400846, "name": "Matty’s View", "amenity": "bench", "man_made": null, "leisure": null, "playground": null, "memorial": null }, "geometry": { "type": "Point", "coordinates": [ -0.7812837, 52.2870948 ] } },
{ "type": "Feature", "properties": { "osm_id": 8701400854, "name": "Pete & Iris’s Bench", "amenity": "bench", "man_made": null, "leisure": null, "playground": null, "memorial": null }, "geometry": { "type": "Point", "coordinates": [ -0.78286, 52.2871958 ] } }
]
}
