{
"type": "FeatureCollection",
"name": "EASLI_30_toilets",
"crs": { "type": "name", "properties": { "name": "urn:ogc:def:crs:OGC:1.3:CRS84" } },
"features": [
{ "type": "Feature", "properties": { "name": "Briar Way", "payment_info": "40p", "accessible": "False", "radar": "Unknown", "women": "True", "men": "True", "baby_change": "True", "Mon": "07:00-20:00", "Tue": "07:00-20:00", "Wed": "07:00-20:00", "Thu": "07:00-20:00", "Fri": "07:00-20:00", "Sat": "07:00-20:00", "Sun": "07:00-20:00", "index_right": 24, "park_offical_id": "EASLI_30" }, "geometry": { "type": "Point", "coordinates": [ 0.339009762, 53.141869948 ] } },
{ "type": "Feature", "properties": { "name": "Tower Gardens", "payment_info": "40p", "accessible": "True", "radar": "True", "women": "True", "men": "True", "baby_change": "True", "Mon": "07:00-20:00", "Tue": "07:00-20:00", "Wed": "07:00-20:00", "Thu": "07:00-20:00", "Fri": "07:00-20:00", "Sat": "07:00-20:00", "Sun": "07:00-20:00", "index_right": 24, "park_offical_id": "EASLI_30" }, "geometry": { "type": "Point", "coordinates": [ 0.343151093, 53.144459308 ] } },
{ "type": "Feature", "properties": { "name": "Skegness Train Stations", "payment_info": "Free", "accessible": "False", "radar": "False", "women": "Unknown", "men": "Unknown", "baby_change": "False", "Mon": "Unknown", "Tue": "Unknown", "Wed": "Unknown", "Thu": "Unknown", "Fri": "Unknown", "Sat": "Unknown", "Sun": "Unknown", "index_right": 24, "park_offical_id": "EASLI_30" }, "geometry": { "type": "Point", "coordinates": [ 0.333903847, 53.143076503 ] } },
{ "type": "Feature", "properties": { "name": "Pier amusement", "payment_info": "Cost unknown", "accessible": "True", "radar": "Unknown", "women": "True", "men": "True", "baby_change": "Unknown", "Mon": "Unknown", "Tue": "Unknown", "Wed": "Unknown", "Thu": "Unknown", "Fri": "Unknown", "Sat": "Unknown", "Sun": "Unknown", "index_right": 24, "park_offical_id": "EASLI_30" }, "geometry": { "type": "Point", "coordinates": [ 0.345706946, 53.145032261 ] } },
{ "type": "Feature", "properties": { "name": "Tower Esplanade", "payment_info": "Free", "accessible": "False", "radar": "False", "women": "True", "men": "True", "baby_change": "True", "Mon": "07:00-20:00", "Tue": "07:00-20:00", "Wed": "07:00-20:00", "Thu": "07:00-20:00", "Fri": "07:00-20:00", "Sat": "07:00-20:00", "Sun": "07:00-20:00", "index_right": 24, "park_offical_id": "EASLI_30" }, "geometry": { "type": "Point", "coordinates": [ 0.346713066, 53.141049409 ] } },
{ "type": "Feature", "properties": { "name": "Morrisons", "payment_info": "Free", "accessible": "Unknown", "radar": "False", "women": "True", "men": "True", "baby_change": "Unknown", "Mon": "Unknown", "Tue": "Unknown", "Wed": "Unknown", "Thu": "Unknown", "Fri": "Unknown", "Sat": "Unknown", "Sun": "Unknown", "index_right": 24, "park_offical_id": "EASLI_30" }, "geometry": { "type": "Point", "coordinates": [ 0.332245231, 53.142928581 ] } },
{ "type": "Feature", "properties": { "name": "Bostons Amusement", "payment_info": "020", "accessible": "True", "radar": "Unknown", "women": "True", "men": "True", "baby_change": "Unknown", "Mon": "Unknown", "Tue": "Unknown", "Wed": "Unknown", "Thu": "Unknown", "Fri": "Unknown", "Sat": "Unknown", "Sun": "Unknown", "index_right": 24, "park_offical_id": "EASLI_30" }, "geometry": { "type": "Point", "coordinates": [ 0.347200756, 53.144279533 ] } },
{ "type": "Feature", "properties": { "name": "North Parade", "payment_info": "40p", "accessible": "True", "radar": "True", "women": "True", "men": "True", "baby_change": "True", "Mon": "07:00-20:00", "Tue": "07:00-20:00", "Wed": "07:00-20:00", "Thu": "07:00-20:00", "Fri": "07:00-20:00", "Sat": "07:00-20:00", "Sun": "07:00-20:00", "index_right": 24, "park_offical_id": "EASLI_30" }, "geometry": { "type": "Point", "coordinates": [ 0.346541405, 53.149382782 ] } },
{ "type": "Feature", "properties": { "name": "Lucky Strike", "payment_info": "Free", "accessible": "False", "radar": "False", "women": "True", "men": "True", "baby_change": "True", "Mon": "09:00-18:00", "Tue": "09:00-18:00", "Wed": "09:00-18:00", "Thu": "09:00-18:00", "Fri": "09:00-18:00", "Sat": "09:00-18:00", "Sun": "09:00-18:00", "index_right": 24, "park_offical_id": "EASLI_30" }, "geometry": { "type": "Point", "coordinates": [ 0.343489051, 53.142515106 ] } },
{ "type": "Feature", "properties": { "name": "Lumley Square", "payment_info": "20p", "accessible": "False", "radar": "True", "women": "True", "men": "True", "baby_change": "True", "Mon": "07:00-20:00", "Tue": "07:00-20:00", "Wed": "07:00-20:00", "Thu": "07:00-20:00", "Fri": "07:00-20:00", "Sat": "07:00-20:00", "Sun": "07:00-20:00", "index_right": 24, "park_offical_id": "EASLI_30" }, "geometry": { "type": "Point", "coordinates": [ 0.3357111, 53.1432956 ] } }
]
}
